header: 
  seq: 294
  stamp: 
    secs: 1571072119
    nsecs:    940453
  frame_id: ''
twist: 
  linear: 
    x: 50.0
    y: 0.0
    z: 0.0
  angular: 
    x: 0.0
    y: 0.0
    z: 0.0
---
header: 
  seq: 295
  stamp: 
    secs: 1571072119
    nsecs:  34350743
  frame_id: ''
twist: 
  linear: 
    x: 50.0
    y: 0.0
    z: 0.0
  angular: 
    x: 0.0
    y: 0.0
    z: 0.0
---
header: 
  seq: 296
  stamp: 
    secs: 1571072119
    nsecs:  67618935
  frame_id: ''
twist: 
  linear: 
    x: 50.0
    y: 0.0
    z: 0.0
  angular: 
    x: 0.0
    y: 0.0
    z: 0.0
---
header: 
  seq: 297
  stamp: 
    secs: 1571072119
    nsecs: 100929647
  frame_id: ''
twist: 
  linear: 
    x: 50.0
    y: 0.0
    z: 0.0
  angular: 
    x: 0.0
    y: 0.0
    z: 0.0
---
header: 
  seq: 298
  stamp: 
    secs: 1571072119
    nsecs: 134386593
  frame_id: ''
twist: 
  linear: 
    x: 50.0
    y: 0.0
    z: 0.0
  angular: 
    x: 0.0
    y: 0.0
    z: 0.0
---
header: 
  seq: 299
  stamp: 
    secs: 1571072119
    nsecs: 167536168
  frame_id: ''
twist: 
  linear: 
    x: 50.0
    y: 0.0
    z: 0.0
  angular: 
    x: 0.0
    y: 0.0
    z: 0.0
---
header: 
  seq: 300
  stamp: 
    secs: 1571072119
    nsecs: 201060908
  frame_id: ''
twist: 
  linear: 
    x: 50.0
    y: 0.0
    z: 0.0
  angular: 
    x: 0.0
    y: 0.0
    z: 0.0
---
header: 
  seq: 301
  stamp: 
    secs: 1571072119
    nsecs: 234470078
  frame_id: ''
twist: 
  linear: 
    x: 50.0
    y: 0.0
    z: 0.0
  angular: 
    x: 0.0
    y: 0.0
    z: 0.0
---
header: 
  seq: 302
  stamp: 
    secs: 1571072119
    nsecs: 268034255
  frame_id: ''
twist: 
  linear: 
    x: 50.0
    y: 0.0
    z: 0.0
  angular: 
    x: 0.0
    y: 0.0
    z: 0.0
---
header: 
  seq: 303
  stamp: 
    secs: 1571072119
    nsecs: 300905707
  frame_id: ''
twist: 
  linear: 
    x: 50.0
    y: 0.0
    z: 0.0
  angular: 
    x: 0.0
    y: 0.0
    z: 0.0
---
header: 
  seq: 304
  stamp: 
    secs: 1571072119
    nsecs: 334555690
  frame_id: ''
twist: 
  linear: 
    x: 50.0
    y: 0.0
    z: 0.0
  angular: 
    x: 0.0
    y: 0.0
    z: 0.0
---
header: 
  seq: 305
  stamp: 
    secs: 1571072119
    nsecs: 367522436
  frame_id: ''
twist: 
  linear: 
    x: 50.0
    y: 0.0
    z: 0.0
  angular: 
    x: 0.0
    y: 0.0
    z: 0.0
---
header: 
  seq: 306
  stamp: 
    secs: 1571072119
    nsecs: 400973281
  frame_id: ''
twist: 
  linear: 
    x: 50.0
    y: 0.0
    z: 0.0
  angular: 
    x: 0.0
    y: 0.0
    z: 0.0
---
header: 
  seq: 307
  stamp: 
    secs: 1571072119
    nsecs: 434355912
  frame_id: ''
twist: 
  linear: 
    x: 50.0
    y: 0.0
    z: 0.0
  angular: 
    x: 0.0
    y: 0.0
    z: 0.0
---
header: 
  seq: 308
  stamp: 
    secs: 1571072119
    nsecs: 467575557
  frame_id: ''
twist: 
  linear: 
    x: 50.0
    y: 0.0
    z: 0.0
  angular: 
    x: 0.0
    y: 0.0
    z: 0.0
---
header: 
  seq: 309
  stamp: 
    secs: 1571072119
    nsecs: 501277431
  frame_id: ''
twist: 
  linear: 
    x: 50.0
    y: 0.0
    z: 0.0
  angular: 
    x: 0.0
    y: 0.0
    z: 0.0
---
header: 
  seq: 310
  stamp: 
    secs: 1571072119
    nsecs: 536604180
  frame_id: ''
twist: 
  linear: 
    x: 50.0
    y: 0.0
    z: 0.0
  angular: 
    x: 0.0
    y: 0.0
    z: 0.0
---
header: 
  seq: 311
  stamp: 
    secs: 1571072119
    nsecs: 567535409
  frame_id: ''
twist: 
  linear: 
    x: 50.0
    y: 0.0
    z: 0.0
  angular: 
    x: 0.0
    y: 0.0
    z: 0.0
---
header: 
  seq: 312
  stamp: 
    secs: 1571072119
    nsecs: 601238179
  frame_id: ''
twist: 
  linear: 
    x: 50.0
    y: 0.0
    z: 0.0
  angular: 
    x: 0.0
    y: 0.0
    z: 0.0
---
header: 
  seq: 313
  stamp: 
    secs: 1571072119
    nsecs: 634680617
  frame_id: ''
twist: 
  linear: 
    x: 50.0
    y: 0.0
    z: 0.0
  angular: 
    x: 0.0
    y: 0.0
    z: 0.0
---
header: 
  seq: 314
  stamp: 
    secs: 1571072119
    nsecs: 667552378
  frame_id: ''
twist: 
  linear: 
    x: 50.0
    y: 0.0
    z: 0.0
  angular: 
    x: 0.0
    y: 0.0
    z: 0.0
---
header: 
  seq: 315
  stamp: 
    secs: 1571072119
    nsecs: 704445510
  frame_id: ''
twist: 
  linear: 
    x: 50.0
    y: 0.0
    z: 0.0
  angular: 
    x: 0.0
    y: 0.0
    z: 0.0
---
header: 
  seq: 316
  stamp: 
    secs: 1571072119
    nsecs: 734233322
  frame_id: ''
twist: 
  linear: 
    x: 50.0
    y: 0.0
    z: 0.0
  angular: 
    x: 0.0
    y: 0.0
    z: 0.0
---
header: 
  seq: 317
  stamp: 
    secs: 1571072119
    nsecs: 767518282
  frame_id: ''
twist: 
  linear: 
    x: 50.0
    y: 0.0
    z: 0.0
  angular: 
    x: 0.0
    y: 0.0
    z: 0.0
---
header: 
  seq: 318
  stamp: 
    secs: 1571072119
    nsecs: 801050314
  frame_id: ''
twist: 
  linear: 
    x: 50.0
    y: 0.0
    z: 0.0
  angular: 
    x: 0.0
    y: 0.0
    z: 0.0
---
header: 
  seq: 319
  stamp: 
    secs: 1571072119
    nsecs: 834541240
  frame_id: ''
twist: 
  linear: 
    x: 50.0
    y: 0.0
    z: 0.0
  angular: 
    x: 0.0
    y: 0.0
    z: 0.0
---
header: 
  seq: 320
  stamp: 
    secs: 1571072119
    nsecs: 867530764
  frame_id: ''
twist: 
  linear: 
    x: 50.0
    y: 0.0
    z: 0.0
  angular: 
    x: 0.0
    y: 0.0
    z: 0.0
---
header: 
  seq: 321
  stamp: 
    secs: 1571072119
    nsecs: 900819544
  frame_id: ''
twist: 
  linear: 
    x: 50.0
    y: 0.0
    z: 0.0
  angular: 
    x: 0.0
    y: 0.0
    z: 0.0
---
header: 
  seq: 322
  stamp: 
    secs: 1571072119
    nsecs: 934209046
  frame_id: ''
twist: 
  linear: 
    x: 50.0
    y: 0.0
    z: 0.0
  angular: 
    x: 0.0
    y: 0.0
    z: 0.0
---
header: 
  seq: 323
  stamp: 
    secs: 1571072119
    nsecs: 967544743
  frame_id: ''
twist: 
  linear: 
    x: 50.0
    y: 0.0
    z: 0.0
  angular: 
    x: 0.0
    y: 0.0
    z: 0.0
---
header: 
  seq: 324
  stamp: 
    secs: 1571072120
    nsecs:    969961
  frame_id: ''
twist: 
  linear: 
    x: 50.0
    y: 0.0
    z: 0.0
  angular: 
    x: 0.0
    y: 0.0
    z: 0.0
---
header: 
  seq: 325
  stamp: 
    secs: 1571072120
    nsecs:  34359068
  frame_id: ''
twist: 
  linear: 
    x: 50.0
    y: 0.0
    z: 0.0
  angular: 
    x: 0.0
    y: 0.0
    z: 0.0
---
header: 
  seq: 326
  stamp: 
    secs: 1571072120
    nsecs:  67974918
  frame_id: ''
twist: 
  linear: 
    x: 50.0
    y: 0.0
    z: 0.0
  angular: 
    x: 0.0
    y: 0.0
    z: 0.0
---
header: 
  seq: 327
  stamp: 
    secs: 1571072120
    nsecs: 100868946
  frame_id: ''
twist: 
  linear: 
    x: 50.0
    y: 0.0
    z: 0.0
  angular: 
    x: 0.0
    y: 0.0
    z: 0.0
---
header: 
  seq: 328
  stamp: 
    secs: 1571072120
    nsecs: 134495486
  frame_id: ''
twist: 
  linear: 
    x: 50.0
    y: 0.0
    z: 0.0
  angular: 
    x: 0.0
    y: 0.0
    z: 0.0
---
header: 
  seq: 329
  stamp: 
    secs: 1571072120
    nsecs: 170520621
  frame_id: ''
twist: 
  linear: 
    x: 50.0
    y: 0.0
    z: 0.0
  angular: 
    x: 0.0
    y: 0.0
    z: 0.0
---
header: 
  seq: 330
  stamp: 
    secs: 1571072120
    nsecs: 201836698
  frame_id: ''
twist: 
  linear: 
    x: 50.0
    y: 0.0
    z: 0.0
  angular: 
    x: 0.0
    y: 0.0
    z: 0.0
---
header: 
  seq: 331
  stamp: 
    secs: 1571072120
    nsecs: 234501421
  frame_id: ''
twist: 
  linear: 
    x: 50.0
    y: 0.0
    z: 0.0
  angular: 
    x: 0.0
    y: 0.0
    z: 0.0
---
header: 
  seq: 332
  stamp: 
    secs: 1571072120
    nsecs: 267630242
  frame_id: ''
twist: 
  linear: 
    x: 50.0
    y: 0.0
    z: 0.0
  angular: 
    x: 0.0
    y: 0.0
    z: 0.0
---
header: 
  seq: 333
  stamp: 
    secs: 1571072120
    nsecs: 300850119
  frame_id: ''
twist: 
  linear: 
    x: 50.0
    y: 0.0
    z: 0.0
  angular: 
    x: 0.0
    y: 0.0
    z: 0.0
---
header: 
  seq: 334
  stamp: 
    secs: 1571072120
    nsecs: 334297681
  frame_id: ''
twist: 
  linear: 
    x: 50.0
    y: 0.0
    z: 0.0
  angular: 
    x: 0.0
    y: 0.0
    z: 0.0
---
header: 
  seq: 335
  stamp: 
    secs: 1571072120
    nsecs: 368148643
  frame_id: ''
twist: 
  linear: 
    x: 50.0
    y: 0.0
    z: 0.0
  angular: 
    x: 0.0
    y: 0.0
    z: 0.0
---
header: 
  seq: 336
  stamp: 
    secs: 1571072120
    nsecs: 400918376
  frame_id: ''
twist: 
  linear: 
    x: 50.0
    y: 0.0
    z: 0.0
  angular: 
    x: 0.0
    y: 0.0
    z: 0.0
---
header: 
  seq: 337
  stamp: 
    secs: 1571072120
    nsecs: 434408675
  frame_id: ''
twist: 
  linear: 
    x: 50.0
    y: 0.0
    z: 0.0
  angular: 
    x: 0.0
    y: 0.0
    z: 0.0
---
header: 
  seq: 338
  stamp: 
    secs: 1571072120
    nsecs: 468187268
  frame_id: ''
twist: 
  linear: 
    x: 50.0
    y: 0.0
    z: 0.0
  angular: 
    x: 0.0
    y: 0.0
    z: 0.0
---
header: 
  seq: 339
  stamp: 
    secs: 1571072120
    nsecs: 500936738
  frame_id: ''
twist: 
  linear: 
    x: 50.0
    y: 0.0
    z: 0.0
  angular: 
    x: 0.0
    y: 0.0
    z: 0.0
---
header: 
  seq: 340
  stamp: 
    secs: 1571072120
    nsecs: 534358244
  frame_id: ''
twist: 
  linear: 
    x: 50.0
    y: 0.0
    z: 0.0
  angular: 
    x: 0.0
    y: 0.0
    z: 0.0
---
header: 
  seq: 341
  stamp: 
    secs: 1571072120
    nsecs: 567925701
  frame_id: ''
twist: 
  linear: 
    x: 50.0
    y: 0.0
    z: 0.0
  angular: 
    x: 0.0
    y: 0.0
    z: 0.0
---
header: 
  seq: 342
  stamp: 
    secs: 1571072120
    nsecs: 601167997
  frame_id: ''
twist: 
  linear: 
    x: 50.0
    y: 0.0
    z: 0.0
  angular: 
    x: 0.0
    y: 0.0
    z: 0.0
---
header: 
  seq: 343
  stamp: 
    secs: 1571072120
    nsecs: 635050145
  frame_id: ''
twist: 
  linear: 
    x: 50.0
    y: 0.0
    z: 0.0
  angular: 
    x: 0.0
    y: 0.0
    z: 0.0
---
header: 
  seq: 344
  stamp: 
    secs: 1571072120
    nsecs: 667562445
  frame_id: ''
twist: 
  linear: 
    x: 50.0
    y: 0.0
    z: 0.0
  angular: 
    x: 0.0
    y: 0.0
    z: 0.0
---
header: 
  seq: 345
  stamp: 
    secs: 1571072120
    nsecs: 701116101
  frame_id: ''
twist: 
  linear: 
    x: 50.0
    y: 0.0
    z: 0.0
  angular: 
    x: 0.0
    y: 0.0
    z: 0.0
---
header: 
  seq: 346
  stamp: 
    secs: 1571072120
    nsecs: 734240811
  frame_id: ''
twist: 
  linear: 
    x: 50.0
    y: 0.0
    z: 0.0
  angular: 
    x: 0.0
    y: 0.0
    z: 0.0
---
header: 
  seq: 347
  stamp: 
    secs: 1571072120
    nsecs: 767519233
  frame_id: ''
twist: 
  linear: 
    x: 50.0
    y: 0.0
    z: 0.0
  angular: 
    x: 0.0
    y: 0.0
    z: 0.0
---
header: 
  seq: 348
  stamp: 
    secs: 1571072120
    nsecs: 800955981
  frame_id: ''
twist: 
  linear: 
    x: 50.0
    y: 0.0
    z: 0.0
  angular: 
    x: 0.0
    y: 0.0
    z: 0.0
---
header: 
  seq: 349
  stamp: 
    secs: 1571072120
    nsecs: 834334244
  frame_id: ''
twist: 
  linear: 
    x: 50.0
    y: 0.0
    z: 0.0
  angular: 
    x: 0.0
    y: 0.0
    z: 0.0
---
header: 
  seq: 350
  stamp: 
    secs: 1571072120
    nsecs: 868961058
  frame_id: ''
twist: 
  linear: 
    x: 50.0
    y: 0.0
    z: 0.0
  angular: 
    x: 0.0
    y: 0.0
    z: 0.0
---
header: 
  seq: 351
  stamp: 
    secs: 1571072120
    nsecs: 900973430
  frame_id: ''
twist: 
  linear: 
    x: 50.0
    y: 0.0
    z: 0.0
  angular: 
    x: 0.0
    y: 0.0
    z: 0.0
---
header: 
  seq: 352
  stamp: 
    secs: 1571072120
    nsecs: 934293978
  frame_id: ''
twist: 
  linear: 
    x: 50.0
    y: 0.0
    z: 0.0
  angular: 
    x: 0.0
    y: 0.0
    z: 0.0
---
header: 
  seq: 353
  stamp: 
    secs: 1571072120
    nsecs: 968462543
  frame_id: ''
twist: 
  linear: 
    x: 50.0
    y: 0.0
    z: 0.0
  angular: 
    x: 0.0
    y: 0.0
    z: 0.0
---
header: 
  seq: 354
  stamp: 
    secs: 1571072121
    nsecs:   1179915
  frame_id: ''
twist: 
  linear: 
    x: 50.0
    y: 0.0
    z: 0.0
  angular: 
    x: 0.0
    y: 0.0
    z: 0.0
---
header: 
  seq: 355
  stamp: 
    secs: 1571072121
    nsecs:  34321777
  frame_id: ''
twist: 
  linear: 
    x: 50.0
    y: 0.0
    z: 0.0
  angular: 
    x: 0.0
    y: 0.0
    z: 0.0
---
header: 
  seq: 356
  stamp: 
    secs: 1571072121
    nsecs:  67600084
  frame_id: ''
twist: 
  linear: 
    x: 50.0
    y: 0.0
    z: 0.0
  angular: 
    x: 0.0
    y: 0.0
    z: 0.0
---
header: 
  seq: 357
  stamp: 
    secs: 1571072121
    nsecs: 101003134
  frame_id: ''
twist: 
  linear: 
    x: 50.0
    y: 0.0
    z: 0.0
  angular: 
    x: 0.0
    y: 0.0
    z: 0.0
---
header: 
  seq: 358
  stamp: 
    secs: 1571072121
    nsecs: 134434439
  frame_id: ''
twist: 
  linear: 
    x: 50.0
    y: 0.0
    z: 0.0
  angular: 
    x: 0.0
    y: 0.0
    z: 0.0
---
header: 
  seq: 359
  stamp: 
    secs: 1571072121
    nsecs: 167800584
  frame_id: ''
twist: 
  linear: 
    x: 50.0
    y: 0.0
    z: 0.0
  angular: 
    x: 0.0
    y: 0.0
    z: -0.0479611571719
---
header: 
  seq: 360
  stamp: 
    secs: 1571072121
    nsecs: 201136913
  frame_id: ''
twist: 
  linear: 
    x: 50.0
    y: 0.0
    z: 0.0
  angular: 
    x: 0.0
    y: 0.0
    z: -0.0479611571719
---
header: 
  seq: 361
  stamp: 
    secs: 1571072121
    nsecs: 234235954
  frame_id: ''
twist: 
  linear: 
    x: 50.0
    y: 0.0
    z: 0.0
  angular: 
    x: 0.0
    y: 0.0
    z: -0.0490812411127
---
header: 
  seq: 362
  stamp: 
    secs: 1571072121
    nsecs: 267674989
  frame_id: ''
twist: 
  linear: 
    x: 50.0
    y: 0.0
    z: 0.0
  angular: 
    x: 0.0
    y: 0.0
    z: -0.0490812411127
---
header: 
  seq: 363
  stamp: 
    secs: 1571072121
    nsecs: 301616898
  frame_id: ''
twist: 
  linear: 
    x: 50.0
    y: 0.0
    z: 0.0
  angular: 
    x: 0.0
    y: 0.0
    z: -0.0501593236874
---
header: 
  seq: 364
  stamp: 
    secs: 1571072121
    nsecs: 334400229
  frame_id: ''
twist: 
  linear: 
    x: 50.0
    y: 0.0
    z: 0.0
  angular: 
    x: 0.0
    y: 0.0
    z: -0.0504898929393
---
header: 
  seq: 365
  stamp: 
    secs: 1571072121
    nsecs: 367595924
  frame_id: ''
twist: 
  linear: 
    x: 50.0
    y: 0.0
    z: 0.0
  angular: 
    x: 0.0
    y: 0.0
    z: -0.0510536661262
---
header: 
  seq: 366
  stamp: 
    secs: 1571072121
    nsecs: 401935411
  frame_id: ''
twist: 
  linear: 
    x: 50.0
    y: 0.0
    z: 0.0
  angular: 
    x: 0.0
    y: 0.0
    z: -0.0513235165872
---
header: 
  seq: 367
  stamp: 
    secs: 1571072121
    nsecs: 434381489
  frame_id: ''
twist: 
  linear: 
    x: 50.0
    y: 0.0
    z: 0.0
  angular: 
    x: 0.0
    y: 0.0
    z: -0.051863774396
---
header: 
  seq: 368
  stamp: 
    secs: 1571072121
    nsecs: 467577666
  frame_id: ''
twist: 
  linear: 
    x: 50.0
    y: 0.0
    z: 0.0
  angular: 
    x: 0.0
    y: 0.0
    z: -0.0523298631024
---
header: 
  seq: 369
  stamp: 
    secs: 1571072121
    nsecs: 501393028
  frame_id: ''
twist: 
  linear: 
    x: 50.0
    y: 0.0
    z: 0.0
  angular: 
    x: 0.0
    y: 0.0
    z: -0.0525646638886
---
header: 
  seq: 370
  stamp: 
    secs: 1571072121
    nsecs: 534326138
  frame_id: ''
twist: 
  linear: 
    x: 50.0
    y: 0.0
    z: 0.0
  angular: 
    x: 0.0
    y: 0.0
    z: -0.0532215295261
---
header: 
  seq: 371
  stamp: 
    secs: 1571072121
    nsecs: 567571063
  frame_id: ''
twist: 
  linear: 
    x: 50.0
    y: 0.0
    z: 0.0
  angular: 
    x: 0.0
    y: 0.0
    z: -0.0534501136099
---
header: 
  seq: 372
  stamp: 
    secs: 1571072121
    nsecs: 600908417
  frame_id: ''
twist: 
  linear: 
    x: 50.0
    y: 0.0
    z: 0.0
  angular: 
    x: 0.0
    y: 0.0
    z: -0.0538442138433
---
header: 
  seq: 373
  stamp: 
    secs: 1571072121
    nsecs: 634287552
  frame_id: ''
twist: 
  linear: 
    x: 50.0
    y: 0.0
    z: 0.0
  angular: 
    x: 0.0
    y: 0.0
    z: -0.0542142307243
---
header: 
  seq: 374
  stamp: 
    secs: 1571072121
    nsecs: 667616639
  frame_id: ''
twist: 
  linear: 
    x: 50.0
    y: 0.0
    z: 0.0
  angular: 
    x: 0.0
    y: 0.0
    z: -0.0543702243945
---
header: 
  seq: 375
  stamp: 
    secs: 1571072121
    nsecs: 701030643
  frame_id: ''
twist: 
  linear: 
    x: 50.0
    y: 0.0
    z: 0.0
  angular: 
    x: 0.0
    y: 0.0
    z: -0.0547076275067
---
header: 
  seq: 376
  stamp: 
    secs: 1571072121
    nsecs: 734241635
  frame_id: ''
twist: 
  linear: 
    x: 50.0
    y: 0.0
    z: 0.0
  angular: 
    x: 0.0
    y: 0.0
    z: -0.0548905790356
---
header: 
  seq: 377
  stamp: 
    secs: 1571072121
    nsecs: 767569964
  frame_id: ''
twist: 
  linear: 
    x: 50.0
    y: 0.0
    z: 0.0
  angular: 
    x: 0.0
    y: 0.0
    z: -0.0550290989174
---
header: 
  seq: 378
  stamp: 
    secs: 1571072121
    nsecs: 800922379
  frame_id: ''
twist: 
  linear: 
    x: 50.0
    y: 0.0
    z: 0.0
  angular: 
    x: 0.0
    y: 0.0
    z: -0.0553510510186
---
header: 
  seq: 379
  stamp: 
    secs: 1571072121
    nsecs: 834167830
  frame_id: ''
twist: 
  linear: 
    x: 50.0
    y: 0.0
    z: 0.0
  angular: 
    x: 0.0
    y: 0.0
    z: -0.055639876126
---
header: 
  seq: 380
  stamp: 
    secs: 1571072121
    nsecs: 867645549
  frame_id: ''
twist: 
  linear: 
    x: 50.0
    y: 0.0
    z: 0.0
  angular: 
    x: 0.0
    y: 0.0
    z: -0.0559150189332
---
header: 
  seq: 381
  stamp: 
    secs: 1571072121
    nsecs: 901390054
  frame_id: ''
twist: 
  linear: 
    x: 50.0
    y: 0.0
    z: 0.0
  angular: 
    x: 0.0
    y: 0.0
    z: -0.056020240402
---
header: 
  seq: 382
  stamp: 
    secs: 1571072121
    nsecs: 936762790
  frame_id: ''
twist: 
  linear: 
    x: 50.0
    y: 0.0
    z: 0.0
  angular: 
    x: 0.0
    y: 0.0
    z: -0.0562709565918
---
header: 
  seq: 383
  stamp: 
    secs: 1571072121
    nsecs: 967757645
  frame_id: ''
twist: 
  linear: 
    x: 50.0
    y: 0.0
    z: 0.0
  angular: 
    x: 0.0
    y: 0.0
    z: -0.0565019899172
---
header: 
  seq: 384
  stamp: 
    secs: 1571072122
    nsecs:   1101676
  frame_id: ''
twist: 
  linear: 
    x: 50.0
    y: 0.0
    z: 0.0
  angular: 
    x: 0.0
    y: 0.0
    z: -0.056638036045
---
header: 
  seq: 385
  stamp: 
    secs: 1571072122
    nsecs:  34259271
  frame_id: ''
twist: 
  linear: 
    x: 50.0
    y: 0.0
    z: 0.0
  angular: 
    x: 0.0
    y: 0.0
    z: -0.0568478716658
---
header: 
  seq: 386
  stamp: 
    secs: 1571072122
    nsecs:  69046183
  frame_id: ''
twist: 
  linear: 
    x: 50.0
    y: 0.0
    z: 0.0
  angular: 
    x: 0.0
    y: 0.0
    z: -0.0570484043978
---
header: 
  seq: 387
  stamp: 
    secs: 1571072122
    nsecs: 101015000
  frame_id: ''
twist: 
  linear: 
    x: 50.0
    y: 0.0
    z: 0.0
  angular: 
    x: 0.0
    y: 0.0
    z: -0.0571311593257
---
header: 
  seq: 388
  stamp: 
    secs: 1571072122
    nsecs: 134342697
  frame_id: ''
twist: 
  linear: 
    x: 50.0
    y: 0.0
    z: 0.0
  angular: 
    x: 0.0
    y: 0.0
    z: -0.0574324580795
---
header: 
  seq: 389
  stamp: 
    secs: 1571072122
    nsecs: 167601136
  frame_id: ''
twist: 
  linear: 
    x: 50.0
    y: 0.0
    z: 0.0
  angular: 
    x: 0.0
    y: 0.0
    z: -0.0574324580795
---
header: 
  seq: 390
  stamp: 
    secs: 1571072122
    nsecs: 201011756
  frame_id: ''
twist: 
  linear: 
    x: 50.0
    y: 0.0
    z: 0.0
  angular: 
    x: 0.0
    y: 0.0
    z: -0.0577051236458
---
header: 
  seq: 391
  stamp: 
    secs: 1571072122
    nsecs: 234223232
  frame_id: ''
twist: 
  linear: 
    x: 50.0
    y: 0.0
    z: 0.0
  angular: 
    x: 0.0
    y: 0.0
    z: -0.0577049305309
---
header: 
  seq: 392
  stamp: 
    secs: 1571072122
    nsecs: 268176424
  frame_id: ''
twist: 
  linear: 
    x: 50.0
    y: 0.0
    z: 0.0
  angular: 
    x: 0.0
    y: 0.0
    z: -0.0578446419883
---
header: 
  seq: 393
  stamp: 
    secs: 1571072122
    nsecs: 300959290
  frame_id: ''
twist: 
  linear: 
    x: 50.0
    y: 0.0
    z: 0.0
  angular: 
    x: 0.0
    y: 0.0
    z: -0.0579685527935
---
header: 
  seq: 394
  stamp: 
    secs: 1571072122
    nsecs: 334266673
  frame_id: ''
twist: 
  linear: 
    x: 50.0
    y: 0.0
    z: 0.0
  angular: 
    x: 0.0
    y: 0.0
    z: -0.0579685527935
---
header: 
  seq: 395
  stamp: 
    secs: 1571072122
    nsecs: 367591480
  frame_id: ''
twist: 
  linear: 
    x: 50.0
    y: 0.0
    z: 0.0
  angular: 
    x: 0.0
    y: 0.0
    z: -0.0580279754661
---
header: 
  seq: 396
  stamp: 
    secs: 1571072122
    nsecs: 401641646
  frame_id: ''
twist: 
  linear: 
    x: 50.0
    y: 0.0
    z: 0.0
  angular: 
    x: 0.0
    y: 0.0
    z: -0.0581552789742
---
header: 
  seq: 397
  stamp: 
    secs: 1571072122
    nsecs: 434185643
  frame_id: ''
twist: 
  linear: 
    x: 50.0
    y: 0.0
    z: 0.0
  angular: 
    x: 0.0
    y: 0.0
    z: -0.0580424739426
---
header: 
  seq: 398
  stamp: 
    secs: 1571072122
    nsecs: 467629426
  frame_id: ''
twist: 
  linear: 
    x: 50.0
    y: 0.0
    z: 0.0
  angular: 
    x: 0.0
    y: 0.0
    z: -0.0579789068071
---
header: 
  seq: 399
  stamp: 
    secs: 1571072122
    nsecs: 501392418
  frame_id: ''
twist: 
  linear: 
    x: 50.0
    y: 0.0
    z: 0.0
  angular: 
    x: 0.0
    y: 0.0
    z: -0.0578970509141
---
header: 
  seq: 400
  stamp: 
    secs: 1571072122
    nsecs: 534217342
  frame_id: ''
twist: 
  linear: 
    x: 50.0
    y: 0.0
    z: 0.0
  angular: 
    x: 0.0
    y: 0.0
    z: -0.0578967263864
---
header: 
  seq: 401
  stamp: 
    secs: 1571072122
    nsecs: 568400594
  frame_id: ''
twist: 
  linear: 
    x: 50.0
    y: 0.0
    z: 0.0
  angular: 
    x: 0.0
    y: 0.0
    z: -0.0579156154806
---
header: 
  seq: 402
  stamp: 
    secs: 1571072122
    nsecs: 600979443
  frame_id: ''
twist: 
  linear: 
    x: 50.0
    y: 0.0
    z: 0.0
  angular: 
    x: 0.0
    y: 0.0
    z: -0.0579619131379
---
header: 
  seq: 403
  stamp: 
    secs: 1571072122
    nsecs: 634627875
  frame_id: ''
twist: 
  linear: 
    x: 50.0
    y: 0.0
    z: 0.0
  angular: 
    x: 0.0
    y: 0.0
    z: -0.0579570652299
---
header: 
  seq: 404
  stamp: 
    secs: 1571072122
    nsecs: 667795624
  frame_id: ''
twist: 
  linear: 
    x: 50.0
    y: 0.0
    z: 0.0
  angular: 
    x: 0.0
    y: 0.0
    z: -0.0579245265972
---
header: 
  seq: 405
  stamp: 
    secs: 1571072122
    nsecs: 701425339
  frame_id: ''
twist: 
  linear: 
    x: 50.0
    y: 0.0
    z: 0.0
  angular: 
    x: 0.0
    y: 0.0
    z: -0.0579329759003
---
header: 
  seq: 406
  stamp: 
    secs: 1571072122
    nsecs: 734238506
  frame_id: ''
twist: 
  linear: 
    x: 50.0
    y: 0.0
    z: 0.0
  angular: 
    x: 0.0
    y: 0.0
    z: -0.0579709979985
---
header: 
  seq: 407
  stamp: 
    secs: 1571072122
    nsecs: 767999419
  frame_id: ''
twist: 
  linear: 
    x: 50.0
    y: 0.0
    z: 0.0
  angular: 
    x: 0.0
    y: 0.0
    z: -0.0579285793288
---
header: 
  seq: 408
  stamp: 
    secs: 1571072122
    nsecs: 800851334
  frame_id: ''
twist: 
  linear: 
    x: 50.0
    y: 0.0
    z: 0.0
  angular: 
    x: 0.0
    y: 0.0
    z: -0.0576404727375
---
header: 
  seq: 409
  stamp: 
    secs: 1571072122
    nsecs: 834317800
  frame_id: ''
twist: 
  linear: 
    x: 50.0
    y: 0.0
    z: 0.0
  angular: 
    x: 0.0
    y: 0.0
    z: -0.0574313265502
---
header: 
  seq: 410
  stamp: 
    secs: 1571072122
    nsecs: 867525199
  frame_id: ''
twist: 
  linear: 
    x: 50.0
    y: 0.0
    z: 0.0
  angular: 
    x: 0.0
    y: 0.0
    z: -0.0574227832595
---
header: 
  seq: 411
  stamp: 
    secs: 1571072122
    nsecs: 900976906
  frame_id: ''
twist: 
  linear: 
    x: 50.0
    y: 0.0
    z: 0.0
  angular: 
    x: 0.0
    y: 0.0
    z: -0.0573406568948
---
header: 
  seq: 412
  stamp: 
    secs: 1571072122
    nsecs: 934256441
  frame_id: ''
twist: 
  linear: 
    x: 50.0
    y: 0.0
    z: 0.0
  angular: 
    x: 0.0
    y: 0.0
    z: -0.0572853990605
---
header: 
  seq: 413
  stamp: 
    secs: 1571072122
    nsecs: 967522814
  frame_id: ''
twist: 
  linear: 
    x: 50.0
    y: 0.0
    z: 0.0
  angular: 
    x: 0.0
    y: 0.0
    z: -0.0570224190856
---
header: 
  seq: 414
  stamp: 
    secs: 1571072123
    nsecs:    953698
  frame_id: ''
twist: 
  linear: 
    x: 50.0
    y: 0.0
    z: 0.0
  angular: 
    x: 0.0
    y: 0.0
    z: -0.0569251895544
---
header: 
  seq: 415
  stamp: 
    secs: 1571072123
    nsecs:  34289597
  frame_id: ''
twist: 
  linear: 
    x: 50.0
    y: 0.0
    z: 0.0
  angular: 
    x: 0.0
    y: 0.0
    z: -0.0567241011826
---
header: 
  seq: 416
  stamp: 
    secs: 1571072123
    nsecs:  67473407
  frame_id: ''
twist: 
  linear: 
    x: 50.0
    y: 0.0
    z: 0.0
  angular: 
    x: 0.0
    y: 0.0
    z: -0.056579042694
---
header: 
  seq: 417
  stamp: 
    secs: 1571072123
    nsecs: 100911991
  frame_id: ''
twist: 
  linear: 
    x: 50.0
    y: 0.0
    z: 0.0
  angular: 
    x: 0.0
    y: 0.0
    z: -0.0564530134996
---
header: 
  seq: 418
  stamp: 
    secs: 1571072123
    nsecs: 134249738
  frame_id: ''
twist: 
  linear: 
    x: 50.0
    y: 0.0
    z: 0.0
  angular: 
    x: 0.0
    y: 0.0
    z: -0.0563675973963
---
header: 
  seq: 419
  stamp: 
    secs: 1571072123
    nsecs: 167554394
  frame_id: ''
twist: 
  linear: 
    x: 50.0
    y: 0.0
    z: 0.0
  angular: 
    x: 0.0
    y: 0.0
    z: -0.0563237370602
---
header: 
  seq: 420
  stamp: 
    secs: 1571072123
    nsecs: 201026495
  frame_id: ''
twist: 
  linear: 
    x: 50.0
    y: 0.0
    z: 0.0
  angular: 
    x: 0.0
    y: 0.0
    z: -0.0561972231304
---
header: 
  seq: 421
  stamp: 
    secs: 1571072123
    nsecs: 234618881
  frame_id: ''
twist: 
  linear: 
    x: 50.0
    y: 0.0
    z: 0.0
  angular: 
    x: 0.0
    y: 0.0
    z: -0.0559675321892
---
header: 
  seq: 422
  stamp: 
    secs: 1571072123
    nsecs: 267782541
  frame_id: ''
twist: 
  linear: 
    x: 50.0
    y: 0.0
    z: 0.0
  angular: 
    x: 0.0
    y: 0.0
    z: -0.0559156923441
---
header: 
  seq: 423
  stamp: 
    secs: 1571072123
    nsecs: 301014242
  frame_id: ''
twist: 
  linear: 
    x: 50.0
    y: 0.0
    z: 0.0
  angular: 
    x: 0.0
    y: 0.0
    z: -0.0557180733074
---
header: 
  seq: 424
  stamp: 
    secs: 1571072123
    nsecs: 334317439
  frame_id: ''
twist: 
  linear: 
    x: 50.0
    y: 0.0
    z: 0.0
  angular: 
    x: 0.0
    y: 0.0
    z: -0.0554020217839
---
header: 
  seq: 425
  stamp: 
    secs: 1571072123
    nsecs: 367647294
  frame_id: ''
twist: 
  linear: 
    x: 50.0
    y: 0.0
    z: 0.0
  angular: 
    x: 0.0
    y: 0.0
    z: -0.0552581022836
---
header: 
  seq: 426
  stamp: 
    secs: 1571072123
    nsecs: 401187254
  frame_id: ''
twist: 
  linear: 
    x: 50.0
    y: 0.0
    z: 0.0
  angular: 
    x: 0.0
    y: 0.0
    z: -0.0548873857818
---
header: 
  seq: 427
  stamp: 
    secs: 1571072123
    nsecs: 434233500
  frame_id: ''
twist: 
  linear: 
    x: 50.0
    y: 0.0
    z: 0.0
  angular: 
    x: 0.0
    y: 0.0
    z: -0.054781869698
---
header: 
  seq: 428
  stamp: 
    secs: 1571072123
    nsecs: 467988024
  frame_id: ''
twist: 
  linear: 
    x: 50.0
    y: 0.0
    z: 0.0
  angular: 
    x: 0.0
    y: 0.0
    z: -0.0546486432974
---
header: 
  seq: 429
  stamp: 
    secs: 1571072123
    nsecs: 500966319
  frame_id: ''
twist: 
  linear: 
    x: 50.0
    y: 0.0
    z: 0.0
  angular: 
    x: 0.0
    y: 0.0
    z: -0.0542454629634
---
header: 
  seq: 430
  stamp: 
    secs: 1571072123
    nsecs: 534202393
  frame_id: ''
twist: 
  linear: 
    x: 50.0
    y: 0.0
    z: 0.0
  angular: 
    x: 0.0
    y: 0.0
    z: -0.0540079968434
---
header: 
  seq: 431
  stamp: 
    secs: 1571072123
    nsecs: 568802997
  frame_id: ''
twist: 
  linear: 
    x: 50.0
    y: 0.0
    z: 0.0
  angular: 
    x: 0.0
    y: 0.0
    z: -0.0536607395445
---
header: 
  seq: 432
  stamp: 
    secs: 1571072123
    nsecs: 600984072
  frame_id: ''
twist: 
  linear: 
    x: 50.0
    y: 0.0
    z: 0.0
  angular: 
    x: 0.0
    y: 0.0
    z: -0.0535484774893
---
header: 
  seq: 433
  stamp: 
    secs: 1571072123
    nsecs: 634259289
  frame_id: ''
twist: 
  linear: 
    x: 50.0
    y: 0.0
    z: 0.0
  angular: 
    x: 0.0
    y: 0.0
    z: -0.0532091323386
---
header: 
  seq: 434
  stamp: 
    secs: 1571072123
    nsecs: 667719754
  frame_id: ''
twist: 
  linear: 
    x: 50.0
    y: 0.0
    z: 0.0
  angular: 
    x: 0.0
    y: 0.0
    z: -0.0530538795466
---
header: 
  seq: 435
  stamp: 
    secs: 1571072123
    nsecs: 701061555
  frame_id: ''
twist: 
  linear: 
    x: 50.0
    y: 0.0
    z: 0.0
  angular: 
    x: 0.0
    y: 0.0
    z: -0.0528372676493
---
header: 
  seq: 436
  stamp: 
    secs: 1571072123
    nsecs: 734299079
  frame_id: ''
twist: 
  linear: 
    x: 50.0
    y: 0.0
    z: 0.0
  angular: 
    x: 0.0
    y: 0.0
    z: -0.0527204287615
---
header: 
  seq: 437
  stamp: 
    secs: 1571072123
    nsecs: 767568076
  frame_id: ''
twist: 
  linear: 
    x: 50.0
    y: 0.0
    z: 0.0
  angular: 
    x: 0.0
    y: 0.0
    z: -0.0526018642744
---
header: 
  seq: 438
  stamp: 
    secs: 1571072123
    nsecs: 800882255
  frame_id: ''
twist: 
  linear: 
    x: 50.0
    y: 0.0
    z: 0.0
  angular: 
    x: 0.0
    y: 0.0
    z: -0.052321728414
---
header: 
  seq: 439
  stamp: 
    secs: 1571072123
    nsecs: 834231470
  frame_id: ''
twist: 
  linear: 
    x: 50.0
    y: 0.0
    z: 0.0
  angular: 
    x: 0.0
    y: 0.0
    z: -0.0520420918737
---
header: 
  seq: 440
  stamp: 
    secs: 1571072123
    nsecs: 867614742
  frame_id: ''
twist: 
  linear: 
    x: 50.0
    y: 0.0
    z: 0.0
  angular: 
    x: 0.0
    y: 0.0
    z: -0.0519217285577
---
header: 
  seq: 441
  stamp: 
    secs: 1571072123
    nsecs: 901031110
  frame_id: ''
twist: 
  linear: 
    x: 50.0
    y: 0.0
    z: 0.0
  angular: 
    x: 0.0
    y: 0.0
    z: -0.0516412452009
---
header: 
  seq: 442
  stamp: 
    secs: 1571072123
    nsecs: 934250706
  frame_id: ''
twist: 
  linear: 
    x: 50.0
    y: 0.0
    z: 0.0
  angular: 
    x: 0.0
    y: 0.0
    z: -0.0513464025733
---
header: 
  seq: 443
  stamp: 
    secs: 1571072123
    nsecs: 968385714
  frame_id: ''
twist: 
  linear: 
    x: 50.0
    y: 0.0
    z: 0.0
  angular: 
    x: 0.0
    y: 0.0
    z: -0.0510673080304
---
header: 
  seq: 444
  stamp: 
    secs: 1571072124
    nsecs:    922176
  frame_id: ''
twist: 
  linear: 
    x: 50.0
    y: 0.0
    z: 0.0
  angular: 
    x: 0.0
    y: 0.0
    z: -0.0509872877447
---
header: 
  seq: 445
  stamp: 
    secs: 1571072124
    nsecs:  34266611
  frame_id: ''
twist: 
  linear: 
    x: 50.0
    y: 0.0
    z: 0.0
  angular: 
    x: 0.0
    y: 0.0
    z: -0.0508650821587
---
header: 
  seq: 446
  stamp: 
    secs: 1571072124
    nsecs:  67602264
  frame_id: ''
twist: 
  linear: 
    x: 50.0
    y: 0.0
    z: 0.0
  angular: 
    x: 0.0
    y: 0.0
    z: -0.0507788951738
---
header: 
  seq: 447
  stamp: 
    secs: 1571072124
    nsecs: 101037870
  frame_id: ''
twist: 
  linear: 
    x: 50.0
    y: 0.0
    z: 0.0
  angular: 
    x: 0.0
    y: 0.0
    z: -0.0506886457237
---
header: 
  seq: 448
  stamp: 
    secs: 1571072124
    nsecs: 134417399
  frame_id: ''
twist: 
  linear: 
    x: 50.0
    y: 0.0
    z: 0.0
  angular: 
    x: 0.0
    y: 0.0
    z: -0.0505089060613
---
header: 
  seq: 449
  stamp: 
    secs: 1571072124
    nsecs: 167615257
  frame_id: ''
twist: 
  linear: 
    x: 50.0
    y: 0.0
    z: 0.0
  angular: 
    x: 0.0
    y: 0.0
    z: -0.050204096745
---
header: 
  seq: 450
  stamp: 
    secs: 1571072124
    nsecs: 201653250
  frame_id: ''
twist: 
  linear: 
    x: 50.0
    y: 0.0
    z: 0.0
  angular: 
    x: 0.0
    y: 0.0
    z: -0.050204096745
---
header: 
  seq: 451
  stamp: 
    secs: 1571072124
    nsecs: 234236168
  frame_id: ''
twist: 
  linear: 
    x: 50.0
    y: 0.0
    z: 0.0
  angular: 
    x: 0.0
    y: 0.0
    z: -0.0500615612186
---
header: 
  seq: 452
  stamp: 
    secs: 1571072124
    nsecs: 267576411
  frame_id: ''
twist: 
  linear: 
    x: 50.0
    y: 0.0
    z: 0.0
  angular: 
    x: 0.0
    y: 0.0
    z: -0.0500131732677
---
header: 
  seq: 453
  stamp: 
    secs: 1571072124
    nsecs: 300898481
  frame_id: ''
twist: 
  linear: 
    x: 50.0
    y: 0.0
    z: 0.0
  angular: 
    x: 0.0
    y: 0.0
    z: -0.0500018526216
---
header: 
  seq: 454
  stamp: 
    secs: 1571072124
    nsecs: 334262519
  frame_id: ''
twist: 
  linear: 
    x: 50.0
    y: 0.0
    z: 0.0
  angular: 
    x: 0.0
    y: 0.0
    z: -0.0500778128199
---
header: 
  seq: 455
  stamp: 
    secs: 1571072124
    nsecs: 367568459
  frame_id: ''
twist: 
  linear: 
    x: 50.0
    y: 0.0
    z: 0.0
  angular: 
    x: 0.0
    y: 0.0
    z: -0.0501863780871
---
header: 
  seq: 456
  stamp: 
    secs: 1571072124
    nsecs: 400889542
  frame_id: ''
twist: 
  linear: 
    x: 50.0
    y: 0.0
    z: 0.0
  angular: 
    x: 0.0
    y: 0.0
    z: -0.0501863780871
---
header: 
  seq: 457
  stamp: 
    secs: 1571072124
    nsecs: 434232613
  frame_id: ''
twist: 
  linear: 
    x: 50.0
    y: 0.0
    z: 0.0
  angular: 
    x: 0.0
    y: 0.0
    z: -0.0503639042993
---
header: 
  seq: 458
  stamp: 
    secs: 1571072124
    nsecs: 467489931
  frame_id: ''
twist: 
  linear: 
    x: 50.0
    y: 0.0
    z: 0.0
  angular: 
    x: 0.0
    y: 0.0
    z: -0.0504336868623
---
header: 
  seq: 459
  stamp: 
    secs: 1571072124
    nsecs: 501285669
  frame_id: ''
twist: 
  linear: 
    x: 50.0
    y: 0.0
    z: 0.0
  angular: 
    x: 0.0
    y: 0.0
    z: -0.0505315972474
---
header: 
  seq: 460
  stamp: 
    secs: 1571072124
    nsecs: 534238125
  frame_id: ''
twist: 
  linear: 
    x: 50.0
    y: 0.0
    z: 0.0
  angular: 
    x: 0.0
    y: 0.0
    z: -0.0505859042142
---
header: 
  seq: 461
  stamp: 
    secs: 1571072124
    nsecs: 567581974
  frame_id: ''
twist: 
  linear: 
    x: 50.0
    y: 0.0
    z: 0.0
  angular: 
    x: 0.0
    y: 0.0
    z: -0.050669903629
---
header: 
  seq: 462
  stamp: 
    secs: 1571072124
    nsecs: 600826985
  frame_id: ''
twist: 
  linear: 
    x: 50.0
    y: 0.0
    z: 0.0
  angular: 
    x: 0.0
    y: 0.0
    z: -0.0506906585487
---
header: 
  seq: 463
  stamp: 
    secs: 1571072124
    nsecs: 634579515
  frame_id: ''
twist: 
  linear: 
    x: 50.0
    y: 0.0
    z: 0.0
  angular: 
    x: 0.0
    y: 0.0
    z: -0.0510082936193
---
header: 
  seq: 464
  stamp: 
    secs: 1571072124
    nsecs: 667678893
  frame_id: ''
twist: 
  linear: 
    x: 50.0
    y: 0.0
    z: 0.0
  angular: 
    x: 0.0
    y: 0.0
    z: -0.0512719630427
---
header: 
  seq: 465
  stamp: 
    secs: 1571072124
    nsecs: 701150342
  frame_id: ''
twist: 
  linear: 
    x: 50.0
    y: 0.0
    z: 0.0
  angular: 
    x: 0.0
    y: 0.0
    z: -0.0513706085428
---
header: 
  seq: 466
  stamp: 
    secs: 1571072124
    nsecs: 734321517
  frame_id: ''
twist: 
  linear: 
    x: 50.0
    y: 0.0
    z: 0.0
  angular: 
    x: 0.0
    y: 0.0
    z: -0.0516572561292
---
header: 
  seq: 467
  stamp: 
    secs: 1571072124
    nsecs: 767739437
  frame_id: ''
twist: 
  linear: 
    x: 50.0
    y: 0.0
    z: 0.0
  angular: 
    x: 0.0
    y: 0.0
    z: -0.0516572561292
---
header: 
  seq: 468
  stamp: 
    secs: 1571072124
    nsecs: 801023827
  frame_id: ''
twist: 
  linear: 
    x: 50.0
    y: 0.0
    z: 0.0
  angular: 
    x: 0.0
    y: 0.0
    z: -0.0519355510785
---
header: 
  seq: 469
  stamp: 
    secs: 1571072124
    nsecs: 835540357
  frame_id: ''
twist: 
  linear: 
    x: 50.0
    y: 0.0
    z: 0.0
  angular: 
    x: 0.0
    y: 0.0
    z: -0.0520252662104
---
header: 
  seq: 470
  stamp: 
    secs: 1571072124
    nsecs: 867925534
  frame_id: ''
twist: 
  linear: 
    x: 50.0
    y: 0.0
    z: 0.0
  angular: 
    x: 0.0
    y: 0.0
    z: -0.0522409321237
---
header: 
  seq: 471
  stamp: 
    secs: 1571072124
    nsecs: 901068977
  frame_id: ''
twist: 
  linear: 
    x: 50.0
    y: 0.0
    z: 0.0
  angular: 
    x: 0.0
    y: 0.0
    z: -0.0528185716888
---
header: 
  seq: 472
  stamp: 
    secs: 1571072124
    nsecs: 934284624
  frame_id: ''
twist: 
  linear: 
    x: 50.0
    y: 0.0
    z: 0.0
  angular: 
    x: 0.0
    y: 0.0
    z: -0.0530062031834
---
header: 
  seq: 473
  stamp: 
    secs: 1571072124
    nsecs: 967640238
  frame_id: ''
twist: 
  linear: 
    x: 50.0
    y: 0.0
    z: 0.0
  angular: 
    x: 0.0
    y: 0.0
    z: -0.0533367973953
---
header: 
  seq: 474
  stamp: 
    secs: 1571072125
    nsecs:    890294
  frame_id: ''
twist: 
  linear: 
    x: 50.0
    y: 0.0
    z: 0.0
  angular: 
    x: 0.0
    y: 0.0
    z: -0.053468033741
---
header: 
  seq: 475
  stamp: 
    secs: 1571072125
    nsecs:  34516197
  frame_id: ''
twist: 
  linear: 
    x: 50.0
    y: 0.0
    z: 0.0
  angular: 
    x: 0.0
    y: 0.0
    z: -0.0537420589401
---
header: 
  seq: 476
  stamp: 
    secs: 1571072125
    nsecs:  69546679
  frame_id: ''
twist: 
  linear: 
    x: 50.0
    y: 0.0
    z: 0.0
  angular: 
    x: 0.0
    y: 0.0
    z: -0.0542159595356
---
header: 
  seq: 477
  stamp: 
    secs: 1571072125
    nsecs: 101001380
  frame_id: ''
twist: 
  linear: 
    x: 50.0
    y: 0.0
    z: 0.0
  angular: 
    x: 0.0
    y: 0.0
    z: -0.0542159595356
---
header: 
  seq: 478
  stamp: 
    secs: 1571072125
    nsecs: 134311372
  frame_id: ''
twist: 
  linear: 
    x: 50.0
    y: 0.0
    z: 0.0
  angular: 
    x: 0.0
    y: 0.0
    z: -0.0547937626053
---
header: 
  seq: 479
  stamp: 
    secs: 1571072125
    nsecs: 167550117
  frame_id: ''
twist: 
  linear: 
    x: 50.0
    y: 0.0
    z: 0.0
  angular: 
    x: 0.0
    y: 0.0
    z: -0.0549824681166
---
header: 
  seq: 480
  stamp: 
    secs: 1571072125
    nsecs: 201174027
  frame_id: ''
twist: 
  linear: 
    x: 50.0
    y: 0.0
    z: 0.0
  angular: 
    x: 0.0
    y: 0.0
    z: -0.0553538824031
---
header: 
  seq: 481
  stamp: 
    secs: 1571072125
    nsecs: 234353128
  frame_id: ''
twist: 
  linear: 
    x: 50.0
    y: 0.0
    z: 0.0
  angular: 
    x: 0.0
    y: 0.0
    z: -0.0556799240069
---
header: 
  seq: 482
  stamp: 
    secs: 1571072125
    nsecs: 267567878
  frame_id: ''
twist: 
  linear: 
    x: 50.0
    y: 0.0
    z: 0.0
  angular: 
    x: 0.0
    y: 0.0
    z: -0.0558584729319
---
header: 
  seq: 483
  stamp: 
    secs: 1571072125
    nsecs: 301187770
  frame_id: ''
twist: 
  linear: 
    x: 50.0
    y: 0.0
    z: 0.0
  angular: 
    x: 0.0
    y: 0.0
    z: -0.0560347804816
---
header: 
  seq: 484
  stamp: 
    secs: 1571072125
    nsecs: 334473308
  frame_id: ''
twist: 
  linear: 
    x: 50.0
    y: 0.0
    z: 0.0
  angular: 
    x: 0.0
    y: 0.0
    z: -0.0563444285681
---
header: 
  seq: 485
  stamp: 
    secs: 1571072125
    nsecs: 367502378
  frame_id: ''
twist: 
  linear: 
    x: 50.0
    y: 0.0
    z: 0.0
  angular: 
    x: 0.0
    y: 0.0
    z: -0.0563444285681
---
header: 
  seq: 486
  stamp: 
    secs: 1571072125
    nsecs: 400985571
  frame_id: ''
twist: 
  linear: 
    x: 50.0
    y: 0.0
    z: 0.0
  angular: 
    x: 0.0
    y: 0.0
    z: -0.0569383814135
---
header: 
  seq: 487
  stamp: 
    secs: 1571072125
    nsecs: 434571472
  frame_id: ''
twist: 
  linear: 
    x: 50.0
    y: 0.0
    z: 0.0
  angular: 
    x: 0.0
    y: 0.0
    z: -0.0571125474494
---
header: 
  seq: 488
  stamp: 
    secs: 1571072125
    nsecs: 467749125
  frame_id: ''
twist: 
  linear: 
    x: 50.0
    y: 0.0
    z: 0.0
  angular: 
    x: 0.0
    y: 0.0
    z: -0.0575252965121
---
header: 
  seq: 489
  stamp: 
    secs: 1571072125
    nsecs: 500918977
  frame_id: ''
twist: 
  linear: 
    x: 50.0
    y: 0.0
    z: 0.0
  angular: 
    x: 0.0
    y: 0.0
    z: -0.0579655619634
---
header: 
  seq: 490
  stamp: 
    secs: 1571072125
    nsecs: 534290742
  frame_id: ''
twist: 
  linear: 
    x: 50.0
    y: 0.0
    z: 0.0
  angular: 
    x: 0.0
    y: 0.0
    z: -0.0586021687329
---
header: 
  seq: 491
  stamp: 
    secs: 1571072125
    nsecs: 567612748
  frame_id: ''
twist: 
  linear: 
    x: 50.0
    y: 0.0
    z: 0.0
  angular: 
    x: 0.0
    y: 0.0
    z: -0.058839106188
---
header: 
  seq: 492
  stamp: 
    secs: 1571072125
    nsecs: 601212508
  frame_id: ''
twist: 
  linear: 
    x: 50.0
    y: 0.0
    z: 0.0
  angular: 
    x: 0.0
    y: 0.0
    z: -0.0593059030757
---
header: 
  seq: 493
  stamp: 
    secs: 1571072125
    nsecs: 634220822
  frame_id: ''
twist: 
  linear: 
    x: 50.0
    y: 0.0
    z: 0.0
  angular: 
    x: 0.0
    y: 0.0
    z: -0.0595005814473
---
header: 
  seq: 494
  stamp: 
    secs: 1571072125
    nsecs: 667595125
  frame_id: ''
twist: 
  linear: 
    x: 50.0
    y: 0.0
    z: 0.0
  angular: 
    x: 0.0
    y: 0.0
    z: -0.0599193294046
---
header: 
  seq: 495
  stamp: 
    secs: 1571072125
    nsecs: 704660469
  frame_id: ''
twist: 
  linear: 
    x: 50.0
    y: 0.0
    z: 0.0
  angular: 
    x: 0.0
    y: 0.0
    z: -0.0603301363992
---
header: 
  seq: 496
  stamp: 
    secs: 1571072125
    nsecs: 734314908
  frame_id: ''
twist: 
  linear: 
    x: 50.0
    y: 0.0
    z: 0.0
  angular: 
    x: 0.0
    y: 0.0
    z: -0.0605487124815
---
header: 
  seq: 497
  stamp: 
    secs: 1571072125
    nsecs: 767633633
  frame_id: ''
twist: 
  linear: 
    x: 50.0
    y: 0.0
    z: 0.0
  angular: 
    x: 0.0
    y: 0.0
    z: -0.0607291065887
---
header: 
  seq: 498
  stamp: 
    secs: 1571072125
    nsecs: 801734918
  frame_id: ''
twist: 
  linear: 
    x: 50.0
    y: 0.0
    z: 0.0
  angular: 
    x: 0.0
    y: 0.0
    z: -0.0613524385543
---
header: 
  seq: 499
  stamp: 
    secs: 1571072125
    nsecs: 834228609
  frame_id: ''
twist: 
  linear: 
    x: 50.0
    y: 0.0
    z: 0.0
  angular: 
    x: 0.0
    y: 0.0
    z: -0.0615669062946
---
header: 
  seq: 500
  stamp: 
    secs: 1571072125
    nsecs: 867588039
  frame_id: ''
twist: 
  linear: 
    x: 50.0
    y: 0.0
    z: 0.0
  angular: 
    x: 0.0
    y: 0.0
    z: -0.0619876842781
---
header: 
  seq: 501
  stamp: 
    secs: 1571072125
    nsecs: 901582747
  frame_id: ''
twist: 
  linear: 
    x: 50.0
    y: 0.0
    z: 0.0
  angular: 
    x: 0.0
    y: 0.0
    z: -0.0621938144456
---
header: 
  seq: 502
  stamp: 
    secs: 1571072125
    nsecs: 934266288
  frame_id: ''
twist: 
  linear: 
    x: 50.0
    y: 0.0
    z: 0.0
  angular: 
    x: 0.0
    y: 0.0
    z: -0.0626581332437
---
header: 
  seq: 503
  stamp: 
    secs: 1571072125
    nsecs: 967699723
  frame_id: ''
twist: 
  linear: 
    x: 50.0
    y: 0.0
    z: 0.0
  angular: 
    x: 0.0
    y: 0.0
    z: -0.0626581332437
---
header: 
  seq: 504
  stamp: 
    secs: 1571072126
    nsecs:   4652645
  frame_id: ''
twist: 
  linear: 
    x: 50.0
    y: 0.0
    z: 0.0
  angular: 
    x: 0.0
    y: 0.0
    z: -0.0632313878977
---
header: 
  seq: 505
  stamp: 
    secs: 1571072126
    nsecs:  34291113
  frame_id: ''
twist: 
  linear: 
    x: 50.0
    y: 0.0
    z: 0.0
  angular: 
    x: 0.0
    y: 0.0
    z: -0.0636576989292
---
header: 
  seq: 506
  stamp: 
    secs: 1571072126
    nsecs:  67712369
  frame_id: ''
twist: 
  linear: 
    x: 50.0
    y: 0.0
    z: 0.0
  angular: 
    x: 0.0
    y: 0.0
    z: -0.0638306215631
---
header: 
  seq: 507
  stamp: 
    secs: 1571072126
    nsecs: 100886461
  frame_id: ''
twist: 
  linear: 
    x: 50.0
    y: 0.0
    z: 0.0
  angular: 
    x: 0.0
    y: 0.0
    z: -0.0641694479007
---
header: 
  seq: 508
  stamp: 
    secs: 1571072126
    nsecs: 135511371
  frame_id: ''
twist: 
  linear: 
    x: 50.0
    y: 0.0
    z: 0.0
  angular: 
    x: 0.0
    y: 0.0
    z: -0.0643354803007
---
header: 
  seq: 509
  stamp: 
    secs: 1571072126
    nsecs: 167611261
  frame_id: ''
twist: 
  linear: 
    x: 50.0
    y: 0.0
    z: 0.0
  angular: 
    x: 0.0
    y: 0.0
    z: -0.064767030545
---
header: 
  seq: 510
  stamp: 
    secs: 1571072126
    nsecs: 201170983
  frame_id: ''
twist: 
  linear: 
    x: 50.0
    y: 0.0
    z: 0.0
  angular: 
    x: 0.0
    y: 0.0
    z: -0.0649540195812
---
header: 
  seq: 511
  stamp: 
    secs: 1571072126
    nsecs: 234762508
  frame_id: ''
twist: 
  linear: 
    x: 50.0
    y: 0.0
    z: 0.0
  angular: 
    x: 0.0
    y: 0.0
    z: -0.0653915217585
---
header: 
  seq: 512
  stamp: 
    secs: 1571072126
    nsecs: 272196508
  frame_id: ''
twist: 
  linear: 
    x: 50.0
    y: 0.0
    z: 0.0
  angular: 
    x: 0.0
    y: 0.0
    z: -0.0657888549123
---
header: 
  seq: 513
  stamp: 
    secs: 1571072126
    nsecs: 306431182
  frame_id: ''
twist: 
  linear: 
    x: 50.0
    y: 0.0
    z: 0.0
  angular: 
    x: 0.0
    y: 0.0
    z: -0.0661426352194
---
header: 
  seq: 514
  stamp: 
    secs: 1571072126
    nsecs: 334307440
  frame_id: ''
twist: 
  linear: 
    x: 50.0
    y: 0.0
    z: 0.0
  angular: 
    x: 0.0
    y: 0.0
    z: -0.0663167894985
---
header: 
  seq: 515
  stamp: 
    secs: 1571072126
    nsecs: 367642793
  frame_id: ''
twist: 
  linear: 
    x: 50.0
    y: 0.0
    z: 0.0
  angular: 
    x: 0.0
    y: 0.0
    z: -0.0666577808439
---
header: 
  seq: 516
  stamp: 
    secs: 1571072126
    nsecs: 401368110
  frame_id: ''
twist: 
  linear: 
    x: 50.0
    y: 0.0
    z: 0.0
  angular: 
    x: 0.0
    y: 0.0
    z: -0.0668239374692
---
header: 
  seq: 517
  stamp: 
    secs: 1571072126
    nsecs: 436731417
  frame_id: ''
twist: 
  linear: 
    x: 50.0
    y: 0.0
    z: 0.0
  angular: 
    x: 0.0
    y: 0.0
    z: -0.0671499685033
---
header: 
  seq: 518
  stamp: 
    secs: 1571072126
    nsecs: 467575404
  frame_id: ''
twist: 
  linear: 
    x: 50.0
    y: 0.0
    z: 0.0
  angular: 
    x: 0.0
    y: 0.0
    z: -0.0674381422573
---
header: 
  seq: 519
  stamp: 
    secs: 1571072126
    nsecs: 501122166
  frame_id: ''
twist: 
  linear: 
    x: 50.0
    y: 0.0
    z: 0.0
  angular: 
    x: 0.0
    y: 0.0
    z: -0.0675605139714
---
header: 
  seq: 520
  stamp: 
    secs: 1571072126
    nsecs: 534417118
  frame_id: ''
twist: 
  linear: 
    x: 50.0
    y: 0.0
    z: 0.0
  angular: 
    x: 0.0
    y: 0.0
    z: -0.0679490872122
---
header: 
  seq: 521
  stamp: 
    secs: 1571072126
    nsecs: 567962950
  frame_id: ''
twist: 
  linear: 
    x: 50.0
    y: 0.0
    z: 0.0
  angular: 
    x: 0.0
    y: 0.0
    z: -0.0681994506285
---
header: 
  seq: 522
  stamp: 
    secs: 1571072126
    nsecs: 600931543
  frame_id: ''
twist: 
  linear: 
    x: 50.0
    y: 0.0
    z: 0.0
  angular: 
    x: 0.0
    y: 0.0
    z: -0.068292458873
---
header: 
  seq: 523
  stamp: 
    secs: 1571072126
    nsecs: 634810713
  frame_id: ''
twist: 
  linear: 
    x: 50.0
    y: 0.0
    z: 0.0
  angular: 
    x: 0.0
    y: 0.0
    z: -0.0685108112233
---
header: 
  seq: 524
  stamp: 
    secs: 1571072126
    nsecs: 667661069
  frame_id: ''
twist: 
  linear: 
    x: 50.0
    y: 0.0
    z: 0.0
  angular: 
    x: 0.0
    y: 0.0
    z: -0.0685820094732
---
header: 
  seq: 525
  stamp: 
    secs: 1571072126
    nsecs: 701082211
  frame_id: ''
twist: 
  linear: 
    x: 50.0
    y: 0.0
    z: 0.0
  angular: 
    x: 0.0
    y: 0.0
    z: -0.0688063457288
---
header: 
  seq: 526
  stamp: 
    secs: 1571072126
    nsecs: 735122657
  frame_id: ''
twist: 
  linear: 
    x: 50.0
    y: 0.0
    z: 0.0
  angular: 
    x: 0.0
    y: 0.0
    z: -0.0689912302045
---
header: 
  seq: 527
  stamp: 
    secs: 1571072126
    nsecs: 767764385
  frame_id: ''
twist: 
  linear: 
    x: 50.0
    y: 0.0
    z: 0.0
  angular: 
    x: 0.0
    y: 0.0
    z: -0.0692895918073
---
header: 
  seq: 528
  stamp: 
    secs: 1571072126
    nsecs: 800944568
  frame_id: ''
twist: 
  linear: 
    x: 50.0
    y: 0.0
    z: 0.0
  angular: 
    x: 0.0
    y: 0.0
    z: -0.0692895918073
---
header: 
  seq: 529
  stamp: 
    secs: 1571072126
    nsecs: 834240714
  frame_id: ''
twist: 
  linear: 
    x: 50.0
    y: 0.0
    z: 0.0
  angular: 
    x: 0.0
    y: 0.0
    z: -0.0697170837482
---
header: 
  seq: 530
  stamp: 
    secs: 1571072126
    nsecs: 867635112
  frame_id: ''
twist: 
  linear: 
    x: 50.0
    y: 0.0
    z: 0.0
  angular: 
    x: 0.0
    y: 0.0
    z: -0.0699331538739
---
header: 
  seq: 531
  stamp: 
    secs: 1571072126
    nsecs: 901792207
  frame_id: ''
twist: 
  linear: 
    x: 50.0
    y: 0.0
    z: 0.0
  angular: 
    x: 0.0
    y: 0.0
    z: -0.069988844266
---
header: 
  seq: 532
  stamp: 
    secs: 1571072126
    nsecs: 934253206
  frame_id: ''
twist: 
  linear: 
    x: 50.0
    y: 0.0
    z: 0.0
  angular: 
    x: 0.0
    y: 0.0
    z: -0.0703000616024
---
header: 
  seq: 533
  stamp: 
    secs: 1571072126
    nsecs: 967612974
  frame_id: ''
twist: 
  linear: 
    x: 50.0
    y: 0.0
    z: 0.0
  angular: 
    x: 0.0
    y: 0.0
    z: -0.070575399046
---
header: 
  seq: 534
  stamp: 
    secs: 1571072127
    nsecs:   1149514
  frame_id: ''
twist: 
  linear: 
    x: 50.0
    y: 0.0
    z: 0.0
  angular: 
    x: 0.0
    y: 0.0
    z: -0.07074534552
---
header: 
  seq: 535
  stamp: 
    secs: 1571072127
    nsecs:  34416590
  frame_id: ''
twist: 
  linear: 
    x: 50.0
    y: 0.0
    z: 0.0
  angular: 
    x: 0.0
    y: 0.0
    z: -0.0710149275775
---
header: 
  seq: 536
  stamp: 
    secs: 1571072127
    nsecs:  67780846
  frame_id: ''
twist: 
  linear: 
    x: 50.0
    y: 0.0
    z: 0.0
  angular: 
    x: 0.0
    y: 0.0
    z: -0.0710149275775
---
header: 
  seq: 537
  stamp: 
    secs: 1571072127
    nsecs: 100883632
  frame_id: ''
twist: 
  linear: 
    x: 50.0
    y: 0.0
    z: 0.0
  angular: 
    x: 0.0
    y: 0.0
    z: -0.0714545308172
---
header: 
  seq: 538
  stamp: 
    secs: 1571072127
    nsecs: 134326433
  frame_id: ''
twist: 
  linear: 
    x: 50.0
    y: 0.0
    z: 0.0
  angular: 
    x: 0.0
    y: 0.0
    z: -0.0714545308172
---
header: 
  seq: 539
  stamp: 
    secs: 1571072127
    nsecs: 167559586
  frame_id: ''
twist: 
  linear: 
    x: 50.0
    y: 0.0
    z: 0.0
  angular: 
    x: 0.0
    y: 0.0
    z: -0.0717658619794
---
header: 
  seq: 540
  stamp: 
    secs: 1571072127
    nsecs: 204687744
  frame_id: ''
twist: 
  linear: 
    x: 50.0
    y: 0.0
    z: 0.0
  angular: 
    x: 0.0
    y: 0.0
    z: -0.0718539316771
---
header: 
  seq: 541
  stamp: 
    secs: 1571072127
    nsecs: 234409954
  frame_id: ''
twist: 
  linear: 
    x: 50.0
    y: 0.0
    z: 0.0
  angular: 
    x: 0.0
    y: 0.0
    z: -0.0720513119331
---
header: 
  seq: 542
  stamp: 
    secs: 1571072127
    nsecs: 267580583
  frame_id: ''
twist: 
  linear: 
    x: 50.0
    y: 0.0
    z: 0.0
  angular: 
    x: 0.0
    y: 0.0
    z: -0.0720513119331
---
header: 
  seq: 543
  stamp: 
    secs: 1571072127
    nsecs: 300925894
  frame_id: ''
twist: 
  linear: 
    x: 50.0
    y: 0.0
    z: 0.0
  angular: 
    x: 0.0
    y: 0.0
    z: -0.0721083274788
---
header: 
  seq: 544
  stamp: 
    secs: 1571072127
    nsecs: 335623941
  frame_id: ''
twist: 
  linear: 
    x: 50.0
    y: 0.0
    z: 0.0
  angular: 
    x: 0.0
    y: 0.0
    z: -0.0721083274788
---
header: 
  seq: 545
  stamp: 
    secs: 1571072127
    nsecs: 367600841
  frame_id: ''
twist: 
  linear: 
    x: 50.0
    y: 0.0
    z: 0.0
  angular: 
    x: 0.0
    y: 0.0
    z: -0.0721486530548
---
header: 
  seq: 546
  stamp: 
    secs: 1571072127
    nsecs: 400934720
  frame_id: ''
twist: 
  linear: 
    x: 50.0
    y: 0.0
    z: 0.0
  angular: 
    x: 0.0
    y: 0.0
    z: -0.0721486530548
---
header: 
  seq: 547
  stamp: 
    secs: 1571072127
    nsecs: 434263880
  frame_id: ''
twist: 
  linear: 
    x: 50.0
    y: 0.0
    z: 0.0
  angular: 
    x: 0.0
    y: 0.0
    z: -0.0722445002089
---
header: 
  seq: 548
  stamp: 
    secs: 1571072127
    nsecs: 467580160
  frame_id: ''
twist: 
  linear: 
    x: 50.0
    y: 0.0
    z: 0.0
  angular: 
    x: 0.0
    y: 0.0
    z: -0.0724847567029
---
header: 
  seq: 549
  stamp: 
    secs: 1571072127
    nsecs: 500919077
  frame_id: ''
twist: 
  linear: 
    x: 50.0
    y: 0.0
    z: 0.0
  angular: 
    x: 0.0
    y: 0.0
    z: -0.0726447363808
---
header: 
  seq: 550
  stamp: 
    secs: 1571072127
    nsecs: 534352258
  frame_id: ''
twist: 
  linear: 
    x: 50.0
    y: 0.0
    z: 0.0
  angular: 
    x: 0.0
    y: 0.0
    z: -0.0725847208937
---
header: 
  seq: 551
  stamp: 
    secs: 1571072127
    nsecs: 567649483
  frame_id: ''
twist: 
  linear: 
    x: 50.0
    y: 0.0
    z: 0.0
  angular: 
    x: 0.0
    y: 0.0
    z: -0.0725004652217
---
header: 
  seq: 552
  stamp: 
    secs: 1571072127
    nsecs: 604600093
  frame_id: ''
twist: 
  linear: 
    x: 50.0
    y: 0.0
    z: 0.0
  angular: 
    x: 0.0
    y: 0.0
    z: -0.0724424193261
---
header: 
  seq: 553
  stamp: 
    secs: 1571072127
    nsecs: 636672313
  frame_id: ''
twist: 
  linear: 
    x: 50.0
    y: 0.0
    z: 0.0
  angular: 
    x: 0.0
    y: 0.0
    z: -0.0722202421376
---
header: 
  seq: 554
  stamp: 
    secs: 1571072127
    nsecs: 667547938
  frame_id: ''
twist: 
  linear: 
    x: 50.0
    y: 0.0
    z: 0.0
  angular: 
    x: 0.0
    y: 0.0
    z: -0.0721558076993
---
header: 
  seq: 555
  stamp: 
    secs: 1571072127
    nsecs: 700934658
  frame_id: ''
twist: 
  linear: 
    x: 50.0
    y: 0.0
    z: 0.0
  angular: 
    x: 0.0
    y: 0.0
    z: -0.0720476698225
---
header: 
  seq: 556
  stamp: 
    secs: 1571072127
    nsecs: 734706384
  frame_id: ''
twist: 
  linear: 
    x: 50.0
    y: 0.0
    z: 0.0
  angular: 
    x: 0.0
    y: 0.0
    z: -0.0719378032536
---
header: 
  seq: 557
  stamp: 
    secs: 1571072127
    nsecs: 767860458
  frame_id: ''
twist: 
  linear: 
    x: 50.0
    y: 0.0
    z: 0.0
  angular: 
    x: 0.0
    y: 0.0
    z: -0.0718557710849
---
header: 
  seq: 558
  stamp: 
    secs: 1571072127
    nsecs: 804686288
  frame_id: ''
twist: 
  linear: 
    x: 50.0
    y: 0.0
    z: 0.0
  angular: 
    x: 0.0
    y: 0.0
    z: -0.0716902208527
---
header: 
  seq: 559
  stamp: 
    secs: 1571072127
    nsecs: 834242108
  frame_id: ''
twist: 
  linear: 
    x: 50.0
    y: 0.0
    z: 0.0
  angular: 
    x: 0.0
    y: 0.0
    z: -0.0715740639718
---
header: 
  seq: 560
  stamp: 
    secs: 1571072127
    nsecs: 867618986
  frame_id: ''
twist: 
  linear: 
    x: 50.0
    y: 0.0
    z: 0.0
  angular: 
    x: 0.0
    y: 0.0
    z: -0.0713732401235
---
header: 
  seq: 561
  stamp: 
    secs: 1571072127
    nsecs: 900994361
  frame_id: ''
twist: 
  linear: 
    x: 50.0
    y: 0.0
    z: 0.0
  angular: 
    x: 0.0
    y: 0.0
    z: -0.0711985957629
---
header: 
  seq: 562
  stamp: 
    secs: 1571072127
    nsecs: 934225669
  frame_id: ''
twist: 
  linear: 
    x: 50.0
    y: 0.0
    z: 0.0
  angular: 
    x: 0.0
    y: 0.0
    z: -0.0710949786182
---
header: 
  seq: 563
  stamp: 
    secs: 1571072127
    nsecs: 967635320
  frame_id: ''
twist: 
  linear: 
    x: 50.0
    y: 0.0
    z: 0.0
  angular: 
    x: 0.0
    y: 0.0
    z: -0.0709087415868
---
header: 
  seq: 564
  stamp: 
    secs: 1571072128
    nsecs:   1203162
  frame_id: ''
twist: 
  linear: 
    x: 50.0
    y: 0.0
    z: 0.0
  angular: 
    x: 0.0
    y: 0.0
    z: -0.0708306380432
---
header: 
  seq: 565
  stamp: 
    secs: 1571072128
    nsecs:  34255582
  frame_id: ''
twist: 
  linear: 
    x: 50.0
    y: 0.0
    z: 0.0
  angular: 
    x: 0.0
    y: 0.0
    z: -0.0706418376277
---
header: 
  seq: 566
  stamp: 
    secs: 1571072128
    nsecs:  67647635
  frame_id: ''
twist: 
  linear: 
    x: 50.0
    y: 0.0
    z: 0.0
  angular: 
    x: 0.0
    y: 0.0
    z: -0.0704232966682
---
header: 
  seq: 567
  stamp: 
    secs: 1571072128
    nsecs: 100927656
  frame_id: ''
twist: 
  linear: 
    x: 50.0
    y: 0.0
    z: 0.0
  angular: 
    x: 0.0
    y: 0.0
    z: -0.0703129190988
---
header: 
  seq: 568
  stamp: 
    secs: 1571072128
    nsecs: 134345747
  frame_id: ''
twist: 
  linear: 
    x: 50.0
    y: 0.0
    z: 0.0
  angular: 
    x: 0.0
    y: 0.0
    z: -0.069905989805
---
header: 
  seq: 569
  stamp: 
    secs: 1571072128
    nsecs: 167811212
  frame_id: ''
twist: 
  linear: 
    x: 50.0
    y: 0.0
    z: 0.0
  angular: 
    x: 0.0
    y: 0.0
    z: -0.069905989805
---
header: 
  seq: 570
  stamp: 
    secs: 1571072128
    nsecs: 201830497
  frame_id: ''
twist: 
  linear: 
    x: 50.0
    y: 0.0
    z: 0.0
  angular: 
    x: 0.0
    y: 0.0
    z: -0.0696112253196
---
header: 
  seq: 571
  stamp: 
    secs: 1571072128
    nsecs: 235850876
  frame_id: ''
twist: 
  linear: 
    x: 50.0
    y: 0.0
    z: 0.0
  angular: 
    x: 0.0
    y: 0.0
    z: -0.06902818906
---
header: 
  seq: 572
  stamp: 
    secs: 1571072128
    nsecs: 267671596
  frame_id: ''
twist: 
  linear: 
    x: 50.0
    y: 0.0
    z: 0.0
  angular: 
    x: 0.0
    y: 0.0
    z: -0.068848431575
---
header: 
  seq: 573
  stamp: 
    secs: 1571072128
    nsecs: 300979123
  frame_id: ''
twist: 
  linear: 
    x: 50.0
    y: 0.0
    z: 0.0
  angular: 
    x: 0.0
    y: 0.0
    z: -0.0687098527965
---
header: 
  seq: 574
  stamp: 
    secs: 1571072128
    nsecs: 334357425
  frame_id: ''
twist: 
  linear: 
    x: 50.0
    y: 0.0
    z: 0.0
  angular: 
    x: 0.0
    y: 0.0
    z: -0.0684002164932
---
header: 
  seq: 575
  stamp: 
    secs: 1571072128
    nsecs: 367561893
  frame_id: ''
twist: 
  linear: 
    x: 50.0
    y: 0.0
    z: 0.0
  angular: 
    x: 0.0
    y: 0.0
    z: -0.0682925418821
---
header: 
  seq: 576
  stamp: 
    secs: 1571072128
    nsecs: 400958415
  frame_id: ''
twist: 
  linear: 
    x: 50.0
    y: 0.0
    z: 0.0
  angular: 
    x: 0.0
    y: 0.0
    z: -0.0679220334733
---
header: 
  seq: 577
  stamp: 
    secs: 1571072128
    nsecs: 434275443
  frame_id: ''
twist: 
  linear: 
    x: 50.0
    y: 0.0
    z: 0.0
  angular: 
    x: 0.0
    y: 0.0
    z: -0.0677537173035
---
header: 
  seq: 578
  stamp: 
    secs: 1571072128
    nsecs: 467638330
  frame_id: ''
twist: 
  linear: 
    x: 50.0
    y: 0.0
    z: 0.0
  angular: 
    x: 0.0
    y: 0.0
    z: -0.0673753662279
---
header: 
  seq: 579
  stamp: 
    secs: 1571072128
    nsecs: 500997164
  frame_id: ''
twist: 
  linear: 
    x: 50.0
    y: 0.0
    z: 0.0
  angular: 
    x: 0.0
    y: 0.0
    z: -0.0672353915511
---
header: 
  seq: 580
  stamp: 
    secs: 1571072128
    nsecs: 534237212
  frame_id: ''
twist: 
  linear: 
    x: 50.0
    y: 0.0
    z: 0.0
  angular: 
    x: 0.0
    y: 0.0
    z: -0.0669868255189
---
header: 
  seq: 581
  stamp: 
    secs: 1571072128
    nsecs: 567563220
  frame_id: ''
twist: 
  linear: 
    x: 50.0
    y: 0.0
    z: 0.0
  angular: 
    x: 0.0
    y: 0.0
    z: -0.0667033850652
---
header: 
  seq: 582
  stamp: 
    secs: 1571072128
    nsecs: 601080516
  frame_id: ''
twist: 
  linear: 
    x: 50.0
    y: 0.0
    z: 0.0
  angular: 
    x: 0.0
    y: 0.0
    z: -0.0665188637766
---
header: 
  seq: 583
  stamp: 
    secs: 1571072128
    nsecs: 634237158
  frame_id: ''
twist: 
  linear: 
    x: 50.0
    y: 0.0
    z: 0.0
  angular: 
    x: 0.0
    y: 0.0
    z: -0.0662071121689
---
header: 
  seq: 584
  stamp: 
    secs: 1571072128
    nsecs: 668100990
  frame_id: ''
twist: 
  linear: 
    x: 50.0
    y: 0.0
    z: 0.0
  angular: 
    x: 0.0
    y: 0.0
    z: -0.0660163717904
---
header: 
  seq: 585
  stamp: 
    secs: 1571072128
    nsecs: 700911673
  frame_id: ''
twist: 
  linear: 
    x: 50.0
    y: 0.0
    z: 0.0
  angular: 
    x: 0.0
    y: 0.0
    z: -0.065918674609
---
header: 
  seq: 586
  stamp: 
    secs: 1571072128
    nsecs: 734372335
  frame_id: ''
twist: 
  linear: 
    x: 50.0
    y: 0.0
    z: 0.0
  angular: 
    x: 0.0
    y: 0.0
    z: -0.0657693481999
---
header: 
  seq: 587
  stamp: 
    secs: 1571072128
    nsecs: 767645011
  frame_id: ''
twist: 
  linear: 
    x: 50.0
    y: 0.0
    z: 0.0
  angular: 
    x: 0.0
    y: 0.0
    z: -0.0657867056412
---
header: 
  seq: 588
  stamp: 
    secs: 1571072128
    nsecs: 800946851
  frame_id: ''
twist: 
  linear: 
    x: 50.0
    y: 0.0
    z: 0.0
  angular: 
    x: 0.0
    y: 0.0
    z: -0.065684194497
---
header: 
  seq: 589
  stamp: 
    secs: 1571072128
    nsecs: 834721831
  frame_id: ''
twist: 
  linear: 
    x: 50.0
    y: 0.0
    z: 0.0
  angular: 
    x: 0.0
    y: 0.0
    z: -0.0654594272309
---
header: 
  seq: 590
  stamp: 
    secs: 1571072128
    nsecs: 867751575
  frame_id: ''
twist: 
  linear: 
    x: 50.0
    y: 0.0
    z: 0.0
  angular: 
    x: 0.0
    y: 0.0
    z: -0.0654081646709
---
header: 
  seq: 591
  stamp: 
    secs: 1571072128
    nsecs: 901191931
  frame_id: ''
twist: 
  linear: 
    x: 50.0
    y: 0.0
    z: 0.0
  angular: 
    x: 0.0
    y: 0.0
    z: -0.0653044428514
---
header: 
  seq: 592
  stamp: 
    secs: 1571072128
    nsecs: 935050333
  frame_id: ''
twist: 
  linear: 
    x: 50.0
    y: 0.0
    z: 0.0
  angular: 
    x: 0.0
    y: 0.0
    z: -0.0652537210373
---
header: 
  seq: 593
  stamp: 
    secs: 1571072128
    nsecs: 967649837
  frame_id: ''
twist: 
  linear: 
    x: 50.0
    y: 0.0
    z: 0.0
  angular: 
    x: 0.0
    y: 0.0
    z: -0.065152673773
---
header: 
  seq: 594
  stamp: 
    secs: 1571072129
    nsecs:    872538
  frame_id: ''
twist: 
  linear: 
    x: 50.0
    y: 0.0
    z: 0.0
  angular: 
    x: 0.0
    y: 0.0
    z: -0.0650694613473
---
header: 
  seq: 595
  stamp: 
    secs: 1571072129
